Location Name,Region,Identifier,Latitude,Longitude,RAOB Date,RAOB Time (UTC),RAOB Cycle,Obs 250mb (kt),GFS (kt),GFS Delta,ECMWF (kt),ECMWF Delta,CMC (kt),CMC Delta,ICON (kt),ICON Delta,RAOB Source,Status,Note
SAMSUN,TR,17030,41.3442,36.2564,2026-02-04,00:00,00Z,79,84,5,,,84,5,85,6,UWYO,OK,Exact 250 mb level.
ISTANBUL BOLGE (KARTAL),TR,17064,40.9113,29.1558,2026-02-04,00:00,00Z,86,82,-4,,,83,-3,82,-4,UWYO,OK,Exact 250 mb level.
ERZURUM BOLGE,TR,17095,39.9058,41.2544,2026-02-04,00:00,00Z,44,45,1,,,43,-1,43,-1,UWYO,OK,Exact 250 mb level.
KAYSERI BALGE,TR,17196,38.687,35.5,2026-02-04,00:00,00Z,104,106,2,,,102,-2,99,-6,UWYO,OK,Exact 250 mb level.
IZMIR/GUZELYALI,TR,17220,38.3949,27.0819,2026-02-04,00:00,00Z,56,58,2,,,54,-2,58,2,UWYO,OK,Exact 250 mb level.
ISPARTA,TR,17240,37.7848,30.5679,2026-02-04,00:00,00Z,82,70,-12,,,67,-15,70,-13,UWYO,OK,Exact 250 mb level.
ADANA/BOLGE,TR,17351,37.0041,35.3443,2026-02-04,00:00,00Z,97,94,-3,,,93,-4,92,-6,UWYO,OK,Exact 250 mb level.
PAPHOS AP,CY,17600,34.7194,32.4847,,,,,,,,,,,,,UWYO,NO_RAOB_250,No UWyo sounding found
ATHALASSA,CY,17607,35.1408,33.3964,,,,,,,,,,,,,UWYO,NO_RAOB_250,No UWyo sounding found
LARNACA AIRPORT,CY,17609,34.8733,33.6172,,,,,,,,,,,,,UWYO,NO_RAOB_250,No UWyo sounding found
KOSTANAI AS,KZ,28951,53.2993,63.6104,2026-02-04,00:00,00Z,39,41,2,,,38,-1,41,2,UWYO,OK,Exact 250 mb level.
AKTOBE,KZ,35229,50.2579,57.2235,2026-02-04,00:00,00Z,52,53,1,,,54,2,49,-3,UWYO,OK,Exact 250 mb level.
KARAGANDA,KZ,35394,49.8,73.15,2026-02-04,00:00,00Z,52,49,-3,,,51,-1,54,2,UWYO,OK,Exact 250 mb level.
ZHEZKAZGAN,KZ,35671,47.8,67.7167,2026-02-04,00:00,00Z,27,24,-3,,,26,-1,25,-2,UWYO,OK,Exact 250 mb level.
ATYRAU,KZ,35700,47.1161,51.8836,2026-02-04,00:00,00Z,52,51,-1,,,55,3,54,2,UWYO,OK,Exact 250 mb level.
PAVLODAR,KZ,36003,52.2003,77.0702,2026-02-04,00:00,00Z,54,51,-3,,,55,1,53,-1,UWYO,OK,Exact 250 mb level.
ALMATY AS,KZ,36872,46.3636,77.0045,2026-02-03,12:00,12Z,33,45,12,,,41,8,42,9,UWYO,OK,Exact 250 mb level.
AMS TASBOGET/KYZYLORDA AS,KZ,38064,44.7688,65.5265,2026-02-04,00:00,00Z,25,25,0,,,34,9,30,5,UWYO,OK,Exact 250 mb level.
TARAZ,KZ,38341,42.85,71.3,2026-02-04,00:00,00Z,43,47,4,,,42,-2,40,-3,UWYO,OK,Exact 250 mb level.
ASHDOD NORTH,IL,40186,31.8667,34.6833,,,,,,,,,,,,,UWYO,NO_RAOB_250,No UWyo sounding found
MAFRAQ,JO,40265,32.3667,36.25,,,,,,,,,,,,,UWYO,NO_RAOB_250,No UWyo sounding found
AL QAISUMAH AIRPORT,SA,40373,28.3306,46.1234,2026-02-04,00:00,00Z,88,80,-8,,,86,-3,85,-3,UWYO,OK,Exact 250 mb level.
TABUK AIRPORT,SA,40375,28.3672,36.6043,2026-02-04,00:00,00Z,81,75,-6,,,78,-3,76,-5,UWYO,OK,Exact 250 mb level.
HAIL AIRPORT,SA,40394,27.435,41.6902,2026-02-04,00:00,00Z,82,80,-2,,,82,0,84,2,UWYO,OK,Exact 250 mb level.
KING FAHD AIRPORT,SA,40417,26.4461,49.8097,2026-02-04,00:00,00Z,73,77,4,,,79,6,80,7,UWYO,OK,Exact 250 mb level.
AL MADINA AIRPORT,SA,40430,24.5588,39.6999,2026-02-04,00:00,00Z,83,84,1,,,84,1,82,-1,UWYO,OK,Exact 250 mb level.
BAGHDAD INT. AIRPORT,IQ,40650,33.3,44.4,,,,,,,,,,,,,UWYO,NO_RAOB_250,No UWyo sounding found
TABRIZ,IR,40706,38.1222,46.2425,,,,,,,,,,,,,UWYO,NO_RAOB_250,No UWyo sounding found
GORGAN,IR,40738,36.905,54.4136,2026-02-03,12:00,12Z,79,75,-4,,,80,1,76,-3,UWYO,OK,Exact 250 mb level.
MASHHAD,IR,40745,36.2363,59.6311,,,,,,,,,,,,,UWYO,NO_RAOB_250,No UWyo sounding found
TEHRAN-MEHRABAD,IR,40754,35.6933,51.3094,,,,,,,,,,,,,UWYO,NO_RAOB_250,No UWyo sounding found
KERMANSHAH,IR,40766,34.3522,47.1533,2026-02-03,00:00,00Z,115,92,-23,,,99,-16,93,-22,UWYO,OK,Exact 250 mb level.
ESFAHAN,IR,40800,32.5175,51.7061,2026-02-04,00:00,00Z,70,76,6,,,80,10,77,7,UWYO,OK,Exact 250 mb level.
BIRJAND,IR,40809,32.8905,59.2836,2026-02-03,12:00,12Z,66,63,-3,,,67,1,75,9,UWYO,OK,Exact 250 mb level.
AHWAZ,IR,40811,31.3447,48.7441,,,,,,,,,,,,,UWYO,NO_RAOB_250,No UWyo sounding found
KERMAN,IR,40841,30.25,56.9667,2026-02-03,12:00,12Z,68,62,-6,,,65,-3,61,-7,UWYO,OK,Exact 250 mb level.
SHIRAZ,IR,40848,29.5613,52.6025,,,,,,,,,,,,,UWYO,NO_RAOB_250,No UWyo sounding found
ZAHEDAN,IR,40856,29.4722,60.9002,2026-02-03,00:00,00Z,64,61,-3,,,60,-4,60,-4,UWYO,OK,Exact 250 mb level.
BANDARABBASS,IR,40875,27.2147,56.3727,,,,,,,,,,,,,UWYO,NO_RAOB_250,No UWyo sounding found
KING ABDULAZIZ AIRPORT,SA,41024,21.6576,39.1857,2026-02-04,00:00,00Z,96,96,0,,,95,-1,96,-1,UWYO,OK,Exact 250 mb level.
ABHA,SA,41112,18.2333,42.65,2026-02-04,00:00,00Z,60,57,-3,,,60,0,58,-2,UWYO,OK,Exact 250 mb level.
HAMAD INTERNATIONAL AIRPORT,QA,41169,25.2731,51.6081,2026-02-03,12:00,12Z,109,104,-6,,,99,-11,107,-2,UWYO,OK,Exact 250 mb level.
ABU DHABI INTERNATIONAL AIRPOR,AE,41217,24.4333,54.65,2026-02-04,00:00,00Z,77,76,-1,,,77,0,79,2,UWYO,OK,Exact 250 mb level.
MUSCAT INT'L AIRPORT,OM,41256,23.6087,58.2615,2026-02-04,00:00,00Z,68,66,-2,,,75,7,74,6,UWYO,OK,Exact 250 mb level.
SALALAH AIRPORT,OM,41316,17.0346,54.0737,,,,,,,,,,,,,UWYO,NO_RAOB_250,No UWyo sounding found
CHITRAL,PK,41506,35.9217,71.8,,,,,,,,,,,,,UWYO,NO_RAOB_250,No UWyo sounding found
DROSH,PK,41515,35.5667,71.7833,,,,,,,,,,,,,UWYO,NO_RAOB_250,No UWyo sounding found
GILGIT,PK,41516,35.9167,74.3333,,,,,,,,,,,,,UWYO,NO_RAOB_250,No UWyo sounding found
PESHAWAR,PK,41529,34.0333,71.9333,,,,,,,,,,,,,UWYO,NO_RAOB_250,No UWyo sounding found
JHELUM,PK,41598,32.9333,73.7167,,,,,,,,,,,,,UWYO,NO_RAOB_250,No UWyo sounding found
SIALKOT,PK,41600,32.5,74.5333,,,,,,,,,,,,,UWYO,NO_RAOB_250,No UWyo sounding found
DERA ISMAIL KHAN,PK,41624,31.8167,70.9167,,,,,,,,,,,,,UWYO,NO_RAOB_250,No UWyo sounding found
LAHORE CITY,PK,41640,31.55,74.3333,,,,,,,,,,,,,UWYO,NO_RAOB_250,No UWyo sounding found
MULTAN,PK,41675,30.2,71.4333,,,,,,,,,,,,,UWYO,NO_RAOB_250,No UWyo sounding found
BAHAWALNAGAR,PK,41678,29.95,73.25,,,,,,,,,,,,,UWYO,NO_RAOB_250,No UWyo sounding found
JACOBABAD,PK,41715,28.3,68.4667,,,,,,,,,,,,,UWYO,NO_RAOB_250,No UWyo sounding found
KHANPUR,PK,41718,28.65,70.6833,,,,,,,,,,,,,UWYO,NO_RAOB_250,No UWyo sounding found
KARACHI AIRPORT,PK,41780,24.9,67.1333,,,,,,,,,,,,,UWYO,NO_RAOB_250,No UWyo sounding found
RANGPUR,BD,41859,25.7333,89.2333,,,,,,,,,,,,,UWYO,NO_RAOB_250,No UWyo sounding found
BOGRA,BD,41883,24.85,89.3667,2026-02-04,00:00,00Z,115,117,2,,,108,-7,111,-4,UWYO,OK,Exact 250 mb level.
SYLHET,BD,41891,24.9,91.8833,2026-02-03,00:00,00Z,108,107,-1,,,104,-4,105,-3,UWYO,OK,Exact 250 mb level.
ISHWARDI,BD,41907,24.1333,89.05,,,,,,,,,,,,,UWYO,NO_RAOB_250,No UWyo sounding found
DHAKA,BD,41923,23.7667,90.3833,2026-02-04,00:00,00Z,110,111,1,,,111,1,113,3,UWYO,OK,Exact 250 mb level.
JESSORE,BD,41936,23.1833,89.1667,,,,,,,,,,,,,UWYO,NO_RAOB_250,No UWyo sounding found
FENI (41943-0),BD,41943,23.0333,91.4167,,,,,,,,,,,,,UWYO,NO_RAOB_250,No UWyo sounding found
BARISAL,BD,41950,22.75,90.3667,,,,,,,,,,,,,UWYO,NO_RAOB_250,No UWyo sounding found
CHITTAGONG (AMBAGAN),BD,41977,22.35,91.8167,,,,,,,,,,,,,UWYO,NO_RAOB_250,No UWyo sounding found
COX'S BAZAR,BD,41992,21.4333,91.9333,,,,,,,,,,,,,UWYO,NO_RAOB_250,No UWyo sounding found
SRINAGAR (42027-0),IN,42027,34.0833,74.8333,2026-02-03,12:00,12Z,45,53,8,,,48,3,54,9,UWYO,OK,Exact 250 mb level.
JAMMU,IN,42056,32.6667,74.8333,,,,,,,,,,,,,UWYO,NO_RAOB_250,No UWyo sounding found
SUNDERNAGAR,IN,42079,31.5333,76.9,,,,,,,,,,,,,UWYO,NO_RAOB_250,No UWyo sounding found
PATIALA,IN,42101,30.3333,76.4667,,,,,,,,,,,,,UWYO,NO_RAOB_250,No UWyo sounding found
DEHRADUN,IN,42111,30.2833,78.0833,,,,,,,,,,,,,UWYO,NO_RAOB_250,No UWyo sounding found
GANGANAGAR,IN,42123,29.9167,73.8833,,,,,,,,,,,,,UWYO,NO_RAOB_250,No UWyo sounding found
CHURU,IN,42170,28.25,74.9167,,,,,,,,,,,,,UWYO,NO_RAOB_250,No UWyo sounding found
NEW DELHI/SAFDARJUNG,IN,42182,28.5833,77.2,2026-02-04,00:00,00Z,62,56,-6,,,58,-4,60,-3,UWYO,OK,Exact 250 mb level.
BAREILLY,IN,42189,28.3667,79.4,,,,,,,,,,,,,UWYO,NO_RAOB_250,No UWyo sounding found
PASIGHAT,IN,42220,28.1,95.3833,2026-02-04,00:00,00Z,110,106,-5,,,112,2,110,0,UWYO,OK,Exact 250 mb level.
BAHRAICH,IN,42273,27.5678,81.5939,,,,,,,,,,,,,UWYO,NO_RAOB_250,No UWyo sounding found
GANGTOK,IN,42299,27.3333,88.6167,,,,,,,,,,,,,UWYO,NO_RAOB_250,No UWyo sounding found
DIBRUGARH /MOHANBARI,IN,42314,27.4833,95.0167,2026-02-04,00:00,00Z,119,108,-11,,,115,-4,115,-4,UWYO,OK,Exact 250 mb level.
JAISALMER,IN,42328,26.9,70.9167,,,,,,,,,,,,,UWYO,NO_RAOB_250,No UWyo sounding found
JODHPUR,IN,42339,26.3,73.0167,,,,,,,,,,,,,UWYO,NO_RAOB_250,No UWyo sounding found
JAIPUR / SANGANER,IN,42348,26.8167,75.8,,,,,,,,,,,,,UWYO,NO_RAOB_250,No UWyo sounding found
GWALIOR,IN,42361,26.2333,78.25,,,,,,,,,,,,,UWYO,NO_RAOB_250,No UWyo sounding found
LUCKNOW/AMAUSI,IN,42369,26.75,80.8833,2026-02-04,00:00,00Z,71,59,-12,,,66,-5,67,-4,UWYO,OK,Exact 250 mb level.
GORAKHPUR,IN,42379,26.75,83.3667,,,,,,,,,,,,,UWYO,NO_RAOB_250,No UWyo sounding found
JALPAIGURI,IN,42399,26.5333,88.7167,,,,,,,,,,,,,UWYO,NO_RAOB_250,No UWyo sounding found
GUWAHATI,IN,42410,26.1,91.5833,2026-02-04,00:00,00Z,115,109,-6,,,110,-6,113,-2,UWYO,OK,Exact 250 mb level.
BARMER,IN,42435,25.75,71.3833,,,,,,,,,,,,,UWYO,NO_RAOB_250,No UWyo sounding found
KOTA AERODROME,IN,42452,25.15,75.85,,,,,,,,,,,,,UWYO,NO_RAOB_250,No UWyo sounding found
ALLAHABAD/GHOORPUR,IN,42474,25.3093,81.8081,,,,,,,,,,,,,UWYO,NO_RAOB_250,No UWyo sounding found
PATNA,IN,42492,25.6,85.1667,2026-02-04,00:00,00Z,83,82,-2,,,77,-6,81,-2,UWYO,OK,Exact 250 mb level.
SHILLONG,IN,42516,25.5667,91.8833,,,,,,,,,,,,,UWYO,NO_RAOB_250,No UWyo sounding found
UDAIPUR DABOK,IN,42542,24.6167,73.8833,,,,,,,,,,,,,UWYO,NO_RAOB_250,No UWyo sounding found
IMPHAL/TULIHAL,IN,42623,24.7667,93.9,,,,,,,,,,,,,UWYO,NO_RAOB_250,No UWyo sounding found
BHUJ-RUDRAMATA,IN,42634,23.25,69.8,,,,,,,,,,,,,UWYO,NO_RAOB_250,No UWyo sounding found
AHMADABAD,IN,42647,23.0667,72.6333,2026-02-03,00:00,00Z,53,51,-3,,,56,3,53,0,UWYO,OK,Exact 250 mb level.
BHOPAL/BAIRAGHAR,IN,42667,23.2833,77.35,2026-02-04,00:00,00Z,64,62,-2,,,64,0,65,1,UWYO,OK,Exact 250 mb level.
JABALPUR,IN,42675,23.2,79.95,2026-02-04,00:00,00Z,80,78,-2,,,73,-7,72,-8,UWYO,OK,Exact 250 mb level.
M.O. RANCHI,IN,42701,23.3167,85.3167,,,,,,,,,,,,,UWYO,NO_RAOB_250,No UWyo sounding found
BANKURA,IN,42706,23.3833,87.0833,,,,,,,,,,,,,UWYO,NO_RAOB_250,No UWyo sounding found
AGARTALA,IN,42724,23.8833,91.25,2026-02-04,00:00,00Z,112,114,2,,,111,-1,114,2,UWYO,OK,Exact 250 mb level.
LENGPUI,IN,42726,23.8333,92.6167,2026-02-04,00:00,00Z,111,110,-1,,,110,-1,110,-1,UWYO,OK,Exact 250 mb level.
JAMSHEDPUR (42798-0),IN,42798,22.8167,86.1833,,,,,,,,,,,,,UWYO,NO_RAOB_250,No UWyo sounding found
KOLKATA/DUM DUM,IN,42809,22.65,88.45,2026-02-04,00:00,00Z,109,106,-3,,,108,-1,108,-1,UWYO,OK,Exact 250 mb level.
NAGPUR SONEGAON,IN,42867,21.1,79.05,2026-02-04,00:00,00Z,76,79,3,,,76,0,75,-1,UWYO,OK,Exact 250 mb level.
PBO RAIPUR,IN,42874,21.2333,81.65,2026-02-04,00:00,00Z,102,87,-16,,,91,-11,92,-10,UWYO,OK,Exact 250 mb level.
JHARSIGUDA,IN,42886,21.9167,84.0833,,,,,,,,,,,,,UWYO,NO_RAOB_250,No UWyo sounding found
BHUBANESHWAR,IN,42971,20.25,85.8333,2026-02-04,00:00,00Z,93,96,3,,,98,5,97,4,UWYO,OK,Exact 250 mb level.
BOMBAY / SANTACRUZ,IN,43003,19.1167,72.85,2026-02-04,00:00,00Z,58,64,6,,,62,4,67,9,UWYO,OK,Exact 250 mb level.
JAGDALPUR,IN,43041,19.0833,82.0333,,,,,,,,,,,,,UWYO,NO_RAOB_250,No UWyo sounding found
GOPALPUR,IN,43049,19.2667,84.8833,,,,,,,,,,,,,UWYO,NO_RAOB_250,No UWyo sounding found
PUNE,IN,43063,18.5333,73.85,2026-02-04,00:00,00Z,58,61,3,,,59,1,60,2,UWYO,OK,Exact 250 mb level.
RAMGUNDAM,IN,43086,18.7667,79.4333,2026-02-04,00:00,00Z,96,90,-6,,,88,-9,90,-6,UWYO,OK,Exact 250 mb level.
RATNAGIRI,IN,43110,16.9833,73.3333,,,,,,,,,,,,,UWYO,NO_RAOB_250,No UWyo sounding found
HYDERABAD AIRPORT,IN,43128,17.45,78.4667,2026-02-04,00:00,00Z,84,84,0,,,81,-3,84,0,UWYO,OK,Exact 250 mb level.
VISHAKHAPATNAM/WALTAIR,IN,43150,17.6833,83.3,2026-02-04,00:00,00Z,81,80,-1,,,82,1,81,0,UWYO,OK,Exact 250 mb level.
MACHILIPATNAM/FRANCHPET,IN,43185,16.2,81.15,2026-02-04,00:00,00Z,70,74,4,,,69,-1,72,2,UWYO,OK,Exact 250 mb level.
GOA/PANJIM,IN,43192,15.4833,73.8167,,,,,,,,,,,,,UWYO,NO_RAOB_250,No UWyo sounding found
MANGALORE/PANAMBUR,IN,43285,12.95,74.8333,2026-02-04,00:00,00Z,45,47,2,,,45,0,46,1,UWYO,OK,Exact 250 mb level.
BENGALURU,IN,43295,12.9667,77.5833,2026-02-03,00:00,00Z,54,52,-2,,,50,-4,50,-5,UWYO,OK,Exact 250 mb level.
AMINIDIVI,IN,43311,11.1167,72.7333,2026-02-04,00:00,00Z,25,27,2,,,27,2,29,4,UWYO,OK,Exact 250 mb level.
PORT BLAIR,IN,43333,11.6667,92.7167,,,,,,,,,,,,,UWYO,NO_RAOB_250,No UWyo sounding found
KARAIKAL,IN,43346,10.9167,79.8333,2026-02-04,00:00,00Z,33,30,-3,,,32,-1,30,-3,UWYO,OK,Exact 250 mb level.
COCHIN/WILLINGDON,IN,43353,9.95,76.2667,2026-02-04,00:00,00Z,25,27,2,,,26,1,28,3,UWYO,OK,Exact 250 mb level.
MINICOY,IN,43369,8.2813,73.0581,,,,,,,,,,,,,UWYO,NO_RAOB_250,No UWyo sounding found
THIRUVANANTHAPURAM (43371-0),IN,43371,8.4833,76.95,2026-02-04,00:00,00Z,16,15,-2,,,19,3,19,3,UWYO,OK,Exact 250 mb level.
COLOMBO,LK,43466,6.9,79.8667,2026-02-04,00:00,00Z,8,9,1,,,8,0,7,-1,UWYO,OK,Exact 250 mb level.
ULAANGOM,MN,44212,49.9714,92.0778,2026-02-03,12:00,12Z,43,42,-1,,,45,2,45,2,UWYO,OK,Exact 250 mb level.
MUREN,MN,44231,49.6384,100.167,2026-02-04,00:00,00Z,80,77,-3,,,77,-4,80,-1,UWYO,OK,Exact 250 mb level.
ULAANBAATAR,MN,44292,47.9184,106.8479,2026-02-04,00:00,00Z,66,67,1,,,67,1,67,1,UWYO,OK,Exact 250 mb level.
DALANZADGAD,MN,44373,43.5772,104.4181,,,,,,,,,,,,,UWYO,NO_RAOB_250,No UWyo sounding found
KOWLOON (45004-0),HK,45004,22.3119,114.1728,2026-02-04,00:00,00Z,74,73,-1,,,68,-6,68,-6,UWYO,OK,Exact 250 mb level.
PYONGYANG,KP,47058,39.0333,125.7833,,,,,,,,,,,,,UWYO,NO_RAOB_250,No UWyo sounding found
OSAN AB,KR,47122,37.0833,127.0333,,,,,,,,,,,,,UWYO,NO_RAOB_250,No UWyo sounding found
CHUPUNGNYEONG,KR,47135,36.2202,127.9946,,,,,,,,,,,,,UWYO,NO_RAOB_250,No UWyo sounding found
POHANG,KR,47138,36.032,129.38,2026-02-04,00:00,00Z,82,89,7,,,91,9,91,9,UWYO,OK,Exact 250 mb level.
CHANGWON,KR,47155,35.1702,128.5728,2026-02-04,00:00,00Z,102,95,-7,,,97,-5,97,-5,UWYO,OK,Exact 250 mb level.
GWANGJU AB,KR,47158,35.1167,126.8,,,,,,,,,,,,,UWYO,NO_RAOB_250,No UWyo sounding found
HEUKSANDO,KR,47169,34.6872,125.451,2026-02-04,00:00,00Z,119,114,-6,,,113,-6,116,-3,UWYO,OK,Exact 250 mb level.
NATIONAL TYPHOON CENTER,KR,47186,33.3315,126.6784,2026-02-04,00:00,00Z,127,128,1,,,126,-1,127,0,UWYO,OK,Exact 250 mb level.
DEOKJEOKBUKRI,KR,47230,37.2645,126.103,2026-02-04,00:00,00Z,76,80,4,,,83,7,84,8,UWYO,OK,Exact 250 mb level.
WAKKANAI,JP,47401,45.4153,141.6786,,,,,,,,,,,,,UWYO,NO_RAOB_250,No UWyo sounding found
SAPPORO,JP,47412,43.06,141.3286,,,,,,,,,,,,,UWYO,NO_RAOB_250,No UWyo sounding found
KUSHIRO (47418-0),JP,47418,42.9861,144.3772,,,,,,,,,,,,,UWYO,NO_RAOB_250,No UWyo sounding found
AKITA (47582-0),JP,47582,39.7172,140.0994,,,,,,,,,,,,,UWYO,NO_RAOB_250,No UWyo sounding found
WAJIMA,JP,47600,37.3914,136.8953,,,,,,,,,,,,,UWYO,NO_RAOB_250,No UWyo sounding found
TATENO,JP,47646,36.0581,140.1258,,,,,,,,,,,,,UWYO,NO_RAOB_250,No UWyo sounding found
HACHIJOJIMA,JP,47678,33.1217,139.7792,,,,,,,,,,,,,UWYO,NO_RAOB_250,No UWyo sounding found
MATSUE,JP,47741,35.4572,133.0656,,,,,,,,,,,,,UWYO,NO_RAOB_250,No UWyo sounding found
SHIONOMISAKI (47778-0),JP,47778,33.4503,135.7572,,,,,,,,,,,,,UWYO,NO_RAOB_250,No UWyo sounding found
FUKUOKA,JP,47807,33.5822,130.3764,,,,,,,,,,,,,UWYO,NO_RAOB_250,No UWyo sounding found
KAGOSHIMA,JP,47827,31.555,130.548,,,,,,,,,,,,,UWYO,NO_RAOB_250,No UWyo sounding found
NAZE,JP,47909,28.3797,129.4955,2026-02-04,00:00,00Z,137,139,2,,,139,2,140,3,UWYO,OK_ESTIMATED,Nearest level used: 256 mb
ISHIGAKIJIMA,JP,47918,24.3367,124.1644,2026-02-04,00:00,00Z,92,91,-2,,,91,-1,93,1,UWYO,OK_ESTIMATED,Nearest level used: 252 mb
MINAMIDAITOJIMA,JP,47945,25.8289,131.2286,2026-02-04,00:00,00Z,107,110,3,,,108,1,110,3,UWYO,OK_ESTIMATED,Nearest level used: 258 mb
CHICHIJIMA,JP,47971,27.0922,142.1914,2026-02-04,00:00,00Z,134,135,1,,,137,3,135,1,UWYO,OK,Exact 250 mb level.
MINAMITORISHIMA,JP,47991,24.2883,153.9833,2026-02-04,00:00,00Z,95,97,2,,,95,0,95,0,UWYO,OK_ESTIMATED,Nearest level used: 255 mb
CHIANG MAI,TH,48327,18.7706,98.9683,2026-02-04,00:00,00Z,50,53,3,,,50,0,50,0,UWYO,OK,Exact 250 mb level.
PHITSANULOK,TH,48378,16.7961,100.2758,,,,,,,,,,,,,UWYO,NO_RAOB_250,No UWyo sounding found
KHON KAEN,TH,48381,16.4608,102.7894,2026-02-04,00:00,00Z,25,30,5,,,31,6,30,5,UWYO,OK,Exact 250 mb level.
UBON RATCHATHANI,TH,48407,15.25,104.8667,2026-02-04,00:00,00Z,37,33,-4,,,32,-5,30,-7,UWYO,OK,Exact 250 mb level.
NAKHON RATCHASIMA,TH,48431,14.9681,102.0858,2026-02-03,12:00,12Z,31,34,3,,,30,-1,33,2,UWYO,OK,Exact 250 mb level.
BANGNA AGROMET,TH,48453,13.6664,100.6061,2026-02-04,00:00,00Z,23,27,4,,,24,1,24,1,UWYO,OK,Exact 250 mb level.
SATTAHIP,TH,48477,12.6914,100.9853,,,,,,,,,,,,,UWYO,NO_RAOB_250,No UWyo sounding found
CHANTHA BURI,TH,48480,12.6094,102.1039,,,,,,,,,,,,,UWYO,NO_RAOB_250,No UWyo sounding found
PRACHUAP KHIRIKHAN,TH,48500,11.835,99.8103,2026-02-04,00:00,00Z,25,17,-8,,,22,-3,25,0,UWYO,OK,Exact 250 mb level.
SURAT THANI,TH,48551,9.1342,99.1519,,,,,,,,,,,,,UWYO,NO_RAOB_250,No UWyo sounding found
PHUKET AIRPORT,TH,48565,8.145,98.3144,,,,,,,,,,,,,UWYO,NO_RAOB_250,No UWyo sounding found
SONGKHLA,TH,48568,7.1819,100.6075,,,,,,,,,,,,,UWYO,NO_RAOB_250,No UWyo sounding found
PENANG/BAYAN LEPAS,MY,48601,5.3,100.2667,,,,,,,,,,,,,UWYO,NO_RAOB_250,No UWyo sounding found
KOTA BHARU,MY,48615,6.1667,102.3006,2026-02-04,00:00,00Z,345,21,-324,,,18,-328,15,-330,UWYO,OK_ESTIMATED,Nearest level used: 260 mb
KUALA LUMPUR INTERNATIONAL AIR,MY,48650,2.7308,101.7031,2026-02-04,00:00,00Z,13,13,0,,,8,-5,15,2,UWYO,OK_ESTIMATED,Interpolated from 255/193 mb
KUANTAN,MY,48657,3.7722,103.2119,2026-02-04,00:00,00Z,25,21,-4,,,21,-4,23,-3,UWYO,OK,Exact 250 mb level.
SINGAPORE/CHANGI AIRPORT,SG,48698,1.3679,103.9824,,,,,,,,,,,,,UWYO,NO_RAOB_250,No UWyo sounding found
HA NOI,VN,48820,21.0333,105.8,,,,,,,,,,,,,UWYO,NO_RAOB_250,No UWyo sounding found
BACH LONG VI (RADIOSONDE),VN,48839,20.1294,107.7226,2026-02-04,00:00,00Z,49,51,2,,,49,0,49,0,UWYO,OK,Exact 250 mb level.
VINH,VN,48845,18.6667,105.6833,,,,,,,,,,,,,UWYO,NO_RAOB_250,No UWyo sounding found
DA NANG,VN,48855,16.0667,108.35,,,,,,,,,,,,,UWYO,NO_RAOB_250,No UWyo sounding found
QUY NHON,VN,48870,13.7667,109.2167,,,,,,,,,,,,,UWYO,NO_RAOB_250,No UWyo sounding found
NHA TRANG,VN,48877,12.2167,109.2167,,,,,,,,,,,,,UWYO,NO_RAOB_250,No UWyo sounding found
PHAN THIET,VN,48887,10.9333,108.1,,,,,,,,,,,,,UWYO,NO_RAOB_250,No UWyo sounding found
TAN SON HOA,VN,48900,10.8167,106.6667,,,,,,,,,,,,,UWYO,NO_RAOB_250,No UWyo sounding found
CA MAU,VN,48914,9.1833,105.15,,,,,,,,,,,,,UWYO,NO_RAOB_250,No UWyo sounding found
HAILAR (50527-0),CN,50527,49.25,119.7,,,,,,,,,,,,,UWYO,NO_RAOB_250,No UWyo sounding found
NENJIANG,CN,50557,49.1667,125.2333,,,,,,,,,,,,,UWYO,NO_RAOB_250,No UWyo sounding found
YICHUN (50774-0),CN,50774,47.7,128.8333,,,,,,,,,,,,,UWYO,NO_RAOB_250,No UWyo sounding found
HARBIN (50953-0),CN,50953,45.9333,126.5667,,,,,,,,,,,,,UWYO,NO_RAOB_250,No UWyo sounding found
ALTAY,CN,51076,47.7333,88.0833,,,,,,,,,,,,,UWYO,NO_RAOB_250,No UWyo sounding found
KARAMAY,CN,51243,45.6167,84.85,,,,,,,,,,,,,UWYO,NO_RAOB_250,No UWyo sounding found
YINING,CN,51431,43.95,81.3333,,,,,,,,,,,,,UWYO,NO_RAOB_250,No UWyo sounding found
WU LU MU QI (51463-0),CN,51463,43.7833,87.65,,,,,,,,,,,,,UWYO,NO_RAOB_250,No UWyo sounding found
KUQA,CN,51644,41.7167,82.95,,,,,,,,,,,,,UWYO,NO_RAOB_250,No UWyo sounding found
KORLA,CN,51656,41.7294,85.8186,,,,,,,,,,,,,UWYO,NO_RAOB_250,No UWyo sounding found
KASHI,CN,51709,39.4833,75.75,,,,,,,,,,,,,UWYO,NO_RAOB_250,No UWyo sounding found
RUOQIANG,CN,51777,39.0333,88.1667,,,,,,,,,,,,,UWYO,NO_RAOB_250,No UWyo sounding found
HOTAN,CN,51828,37.1333,79.9333,,,,,,,,,,,,,UWYO,NO_RAOB_250,No UWyo sounding found
MINFENG,CN,51839,37.0667,82.7167,,,,,,,,,,,,,UWYO,NO_RAOB_250,No UWyo sounding found
HAMI,CN,52203,42.8167,93.5167,,,,,,,,,,,,,UWYO,NO_RAOB_250,No UWyo sounding found
EJIN QI,CN,52267,41.95,101.0667,,,,,,,,,,,,,UWYO,NO_RAOB_250,No UWyo sounding found
MAZONG SHAN,CN,52323,41.8,97.0333,,,,,,,,,,,,,UWYO,NO_RAOB_250,No UWyo sounding found
DUNHUANG,CN,52418,40.15,94.6833,,,,,,,,,,,,,UWYO,NO_RAOB_250,No UWyo sounding found
JIUQUAN,CN,52533,39.7667,98.4833,,,,,,,,,,,,,UWYO,NO_RAOB_250,No UWyo sounding found
MINQIN,CN,52681,38.6333,103.0833,,,,,,,,,,,,,UWYO,NO_RAOB_250,No UWyo sounding found
GOLMUD,CN,52818,36.4167,94.9,,,,,,,,,,,,,UWYO,NO_RAOB_250,No UWyo sounding found
DOULAN,CN,52836,36.3,98.1,,,,,,,,,,,,,UWYO,NO_RAOB_250,No UWyo sounding found
XINING (52866-0),CN,52866,36.65,101.7167,,,,,,,,,,,,,UWYO,NO_RAOB_250,No UWyo sounding found
YU ZHONG,CN,52983,35.8667,104.15,,,,,,,,,,,,,UWYO,NO_RAOB_250,No UWyo sounding found
HOHHOT,CN,53463,40.85,111.5667,,,,,,,,,,,,,UWYO,NO_RAOB_250,No UWyo sounding found
LINHE,CN,53513,40.7333,107.3667,,,,,,,,,,,,,UWYO,NO_RAOB_250,No UWyo sounding found
DONGSHENG,CN,53543,39.8333,109.9833,,,,,,,,,,,,,UWYO,NO_RAOB_250,No UWyo sounding found
YINCHUAN,CN,53614,38.4667,106.2,,,,,,,,,,,,,UWYO,NO_RAOB_250,No UWyo sounding found
TAIYUAN (53772-0),CN,53772,37.6167,112.5833,,,,,,,,,,,,,UWYO,NO_RAOB_250,No UWyo sounding found
YAN AN,CN,53845,36.5667,109.45,,,,,,,,,,,,,UWYO,NO_RAOB_250,No UWyo sounding found
PINGLIANG,CN,53915,35.5333,106.6667,,,,,,,,,,,,,UWYO,NO_RAOB_250,No UWyo sounding found
XILIN HOT,CN,54102,43.95,116.1167,,,,,,,,,,,,,UWYO,NO_RAOB_250,No UWyo sounding found
TONGLIAO,CN,54135,43.66,122.35,,,,,,,,,,,,,UWYO,NO_RAOB_250,No UWyo sounding found
CHANGCHUN,CN,54161,43.9,125.2167,,,,,,,,,,,,,UWYO,NO_RAOB_250,No UWyo sounding found
CHIFENG (54218-0),CN,54218,42.3,118.8333,,,,,,,,,,,,,UWYO,NO_RAOB_250,No UWyo sounding found
YANJI,CN,54292,42.8667,129.5,,,,,,,,,,,,,UWYO,NO_RAOB_250,No UWyo sounding found
SHENYANG,CN,54340,41.543,123.61,,,,,,,,,,,,,UWYO,NO_RAOB_250,No UWyo sounding found
LINJIANG,CN,54374,41.8,126.8833,,,,,,,,,,,,,UWYO,NO_RAOB_250,No UWyo sounding found
BEIJING,CN,54511,39.9333,116.2833,,,,,,,,,,,,,UWYO,NO_RAOB_250,No UWyo sounding found
DALIAN,CN,54662,38.9,121.6333,,,,,,,,,,,,,UWYO,NO_RAOB_250,No UWyo sounding found
ZHANGQIU,CN,54727,36.65,117.5,,,,,,,,,,,,,UWYO,NO_RAOB_250,No UWyo sounding found
QINGDAO,CN,54857,36.0667,120.3333,,,,,,,,,,,,,UWYO,NO_RAOB_250,No UWyo sounding found
NAGQU,CN,55299,31.4833,92.0667,,,,,,,,,,,,,UWYO,NO_RAOB_250,No UWyo sounding found
LHASA,CN,55591,29.6667,91.1333,,,,,,,,,,,,,UWYO,NO_RAOB_250,No UWyo sounding found
YUSHU (56029-0),CN,56029,0.0033,96.9667,,,,,,,,,,,,,UWYO,NO_RAOB_250,No UWyo sounding found
DARLAG,CN,56046,33.75,99.65,,,,,,,,,,,,,UWYO,NO_RAOB_250,No UWyo sounding found
HEZUO,CN,56080,0.0035,102.9,,,,,,,,,,,,,UWYO,NO_RAOB_250,No UWyo sounding found
QAMDO (56137-0),CN,56137,31.15,97.1667,,,,,,,,,,,,,UWYO,NO_RAOB_250,No UWyo sounding found
WENJIANG (56187-0),CN,56187,30.75,103.8667,,,,,,,,,,,,,UWYO,NO_RAOB_250,No UWyo sounding found
YIBIN,CN,56492,28.7667,104.6,,,,,,,,,,,,,UWYO,NO_RAOB_250,No UWyo sounding found
XICHANG,CN,56571,27.9,102.2667,,,,,,,,,,,,,UWYO,NO_RAOB_250,No UWyo sounding found
LIJING,CN,56651,26.8333,100.2167,,,,,,,,,,,,,UWYO,NO_RAOB_250,No UWyo sounding found
WEINING,CN,56691,26.8667,104.2833,,,,,,,,,,,,,UWYO,NO_RAOB_250,No UWyo sounding found
TENGCHONG,CN,56739,24.9844,98.5056,,,,,,,,,,,,,UWYO,NO_RAOB_250,No UWyo sounding found
KUNMING,CN,56778,25.0167,102.6833,,,,,,,,,,,,,UWYO,NO_RAOB_250,No UWyo sounding found
SIMAO,CN,56964,22.8161,100.9911,,,,,,,,,,,,,UWYO,NO_RAOB_250,No UWyo sounding found
MENGZI,CN,56985,23.4444,103.3278,,,,,,,,,,,,,UWYO,NO_RAOB_250,No UWyo sounding found
ZHENGZHOU,CN,57083,34.7167,113.65,,,,,,,,,,,,,UWYO,NO_RAOB_250,No UWyo sounding found
HANZHONG,CN,57127,33.0667,107.0333,,,,,,,,,,,,,UWYO,NO_RAOB_250,No UWyo sounding found
JINGHE (57131-0),CN,57131,34.4333,108.9667,,,,,,,,,,,,,UWYO,NO_RAOB_250,No UWyo sounding found
NANYANG,CN,57178,33.1,112.4833,,,,,,,,,,,,,UWYO,NO_RAOB_250,No UWyo sounding found
ANKANG,CN,57245,32.7167,109.0333,,,,,,,,,,,,,UWYO,NO_RAOB_250,No UWyo sounding found
YICHANG,CN,57461,30.7333,111.3667,,,,,,,,,,,,,UWYO,NO_RAOB_250,No UWyo sounding found
WUHAN,CN,57494,30.6,114.05,,,,,,,,,,,,,UWYO,NO_RAOB_250,No UWyo sounding found
CHONGQING (57516-0),CN,57516,29.5833,106.4667,,,,,,,,,,,,,UWYO,NO_RAOB_250,No UWyo sounding found
XUAN' EN,CN,57541,29.99,109.47,,,,,,,,,,,,,UWYO,NO_RAOB_250,No UWyo sounding found
CHANGSHA (57687-0),CN,57687,28.1167,112.7833,,,,,,,,,,,,,UWYO,NO_RAOB_250,No UWyo sounding found
GUIYANG (57816-0),CN,57816,26.5833,106.7333,,,,,,,,,,,,,UWYO,NO_RAOB_250,No UWyo sounding found
GUILIN,CN,57957,25.3333,110.3,,,,,,,,,,,,,UWYO,NO_RAOB_250,No UWyo sounding found
CHENZHOU,CN,57972,25.7353,112.9739,,,,,,,,,,,,,UWYO,NO_RAOB_250,No UWyo sounding found
XUZHOU,CN,58027,34.2833,117.15,,,,,,,,,,,,,UWYO,NO_RAOB_250,No UWyo sounding found
SHEYANG,CN,58150,33.75,120.3,,,,,,,,,,,,,UWYO,NO_RAOB_250,No UWyo sounding found
FUYANG,CN,58203,32.8667,115.7333,,,,,,,,,,,,,UWYO,NO_RAOB_250,No UWyo sounding found
NANJING,CN,58238,31.9333,118.9,,,,,,,,,,,,,UWYO,NO_RAOB_250,No UWyo sounding found
SHANGHAI (BAOSHAN),CN,58362,31.4167,121.45,,,,,,,,,,,,,UWYO,NO_RAOB_250,No UWyo sounding found
ANQING,CN,58424,30.6167,116.9667,,,,,,,,,,,,,UWYO,NO_RAOB_250,No UWyo sounding found
HANGZHOU,CN,58457,30.2333,120.1667,,,,,,,,,,,,,UWYO,NO_RAOB_250,No UWyo sounding found
NANCHANG,CN,58606,28.6,115.9167,,,,,,,,,,,,,UWYO,NO_RAOB_250,No UWyo sounding found
QU XIAN,CN,58633,28.9667,118.8667,,,,,,,,,,,,,UWYO,NO_RAOB_250,No UWyo sounding found
HONGJIA,CN,58665,28.6167,121.4167,,,,,,,,,,,,,UWYO,NO_RAOB_250,No UWyo sounding found
SHAOWU,CN,58725,27.3333,117.5111,,,,,,,,,,,,,UWYO,NO_RAOB_250,No UWyo sounding found
FUZHOU,CN,58847,26.0833,119.2833,,,,,,,,,,,,,UWYO,NO_RAOB_250,No UWyo sounding found
HECHI,CN,59023,24.7,108.0333,,,,,,,,,,,,,UWYO,NO_RAOB_250,No UWyo sounding found
XIAMEN,CN,59134,24.4833,118.0833,,,,,,,,,,,,,UWYO,NO_RAOB_250,No UWyo sounding found
BAISE,CN,59211,23.9,106.6,,,,,,,,,,,,,UWYO,NO_RAOB_250,No UWyo sounding found
WUZHOU,CN,59265,23.4833,111.3,,,,,,,,,,,,,UWYO,NO_RAOB_250,No UWyo sounding found
QINGYUAN (59280-0),CN,59280,23.7167,113.0833,,,,,,,,,,,,,UWYO,NO_RAOB_250,No UWyo sounding found
HEYUAN,CN,59293,23.78,114.77,,,,,,,,,,,,,UWYO,NO_RAOB_250,No UWyo sounding found
SHANTOU (59316-0),CN,59316,23.4,116.6833,,,,,,,,,,,,,UWYO,NO_RAOB_250,No UWyo sounding found
XISHA DAO,-,59981,16.8333,112.3333,,,,,,,,,,,,,UWYO,NO_RAOB_250,No UWyo sounding found
"SHEARWATER UA, NS",KZ,73110,44.6319,63.5052,,,,,,,,,,,,,UWYO,NO_RAOB_250,No UWyo sounding found
LHOKSEUMAWE/MALIKUSSALEH,ID,96009,5.2287,96.9475,,,,,,,,,,,,,UWYO,NO_RAOB_250,No UWyo sounding found
BANDA ACEH/BLANG BINTANG,ID,96011,5.5224,95.4168,,,,,,,,,,,,,UWYO,NO_RAOB_250,No UWyo sounding found
MEULABOH/CUT NYAK DHIEN,ID,96015,4.25,96.1167,,,,,,,,,,,,,UWYO,NO_RAOB_250,No UWyo sounding found
KUALANAMU MEDAN,ID,96035,3.6403,98.8786,2026-02-04,00:00,00Z,12,8,-4,,,14,2,13,1,UWYO,OK,Exact 250 mb level.
SIBOLGA/PINANGSORI,ID,96073,1.5533,98.8833,,,,,,,,,,,,,UWYO,NO_RAOB_250,No UWyo sounding found
GUNUNG SITOLI/BINAKA,ID,96075,1.1649,97.7036,,,,,,,,,,,,,UWYO,NO_RAOB_250,No UWyo sounding found
TANJUNG PINANG/KIJANG,ID,96091,0.9186,104.53,,,,,,,,,,,,,UWYO,NO_RAOB_250,No UWyo sounding found
PEKAN BARU/SIMPANGTIGA,ID,96109,0.4667,101.45,,,,,,,,,,,,,UWYO,NO_RAOB_250,No UWyo sounding found
TAREMPA,ID,96145,3.2149,106.2198,,,,,,,,,,,,,UWYO,NO_RAOB_250,No UWyo sounding found
RANAI,ID,96147,3.912,108.3935,,,,,,,,,,,,,UWYO,NO_RAOB_250,No UWyo sounding found
MIA PADANG,ID,96163,-0.7936,100.2891,,,,,,,,,,,,,UWYO,NO_RAOB_250,No UWyo sounding found
RENGAT/JAPURA,ID,96171,-0.3493,102.3339,,,,,,,,,,,,,UWYO,NO_RAOB_250,No UWyo sounding found
SINGKEP/DABO,ID,96179,-0.4789,104.5777,,,,,,,,,,,,,UWYO,NO_RAOB_250,No UWyo sounding found
JAMBI/SULTAN TAHA,ID,96195,-1.6333,103.65,,,,,,,,,,,,,UWYO,NO_RAOB_250,No UWyo sounding found
PALEMBANG/ST. M. BADARUDIN II,ID,96221,-2.9,104.7,,,,,,,,,,,,,UWYO,NO_RAOB_250,No UWyo sounding found
PANGKAL PINANG,ID,96237,-2.1667,106.1333,,,,,,,,,,,,,UWYO,NO_RAOB_250,No UWyo sounding found
TANJUNG PANDAN/BULUH TUMBANG,ID,96249,-2.75,107.75,,,,,,,,,,,,,UWYO,NO_RAOB_250,No UWyo sounding found
BENGKULU/PADANG KEMILING,ID,96253,-3.8833,102.3333,,,,,,,,,,,,,UWYO,NO_RAOB_250,No UWyo sounding found
BRUNEI AIRPORT,BN,96315,4.9333,114.9333,,,,,,,,,,,,,UWYO,NO_RAOB_250,No UWyo sounding found
KUALA BELAIT,BN,96323,4.583,114.2,,,,,,,,,,,,,UWYO,NO_RAOB_250,No UWyo sounding found
KUCHING,MY,96413,1.4903,110.3525,2026-02-04,00:00,00Z,31,26,-5,,,32,1,30,-1,UWYO,OK,Exact 250 mb level.
BINTULU,MY,96441,3.12,113.0246,2026-02-04,00:00,00Z,21,30,9,,,23,2,23,2,UWYO,OK,Exact 250 mb level.
KOTA KINABALU,MY,96471,5.9333,116.05,2026-02-04,00:00,00Z,49,43,-6,,,45,-4,43,-6,UWYO,OK,Exact 250 mb level.
TAWAU,MY,96481,4.2667,117.8833,2026-02-04,00:00,00Z,37,44,7,,,42,5,41,4,UWYO,OK,Exact 250 mb level.
TARAKAN/JUWATA,ID,96509,3.3333,117.5667,,,,,,,,,,,,,UWYO,NO_RAOB_250,No UWyo sounding found
PALOH,ID,96535,1.7667,109.3,,,,,,,,,,,,,UWYO,NO_RAOB_250,No UWyo sounding found
PUTUSSIBAU/PAGSUMA,ID,96565,0.8833,112.9333,,,,,,,,,,,,,UWYO,NO_RAOB_250,No UWyo sounding found
PONTIANAK/SUPADIO,ID,96581,-0.15,109.4,,,,,,,,,,,,,UWYO,NO_RAOB_250,No UWyo sounding found
BALIKPAPAN/SEPINGGAN,ID,96633,-1.2625,116.8947,,,,,,,,,,,,,UWYO,NO_RAOB_250,No UWyo sounding found
PANGKALAN BUN/ISKANDAR,ID,96645,-2.7,111.7,,,,,,,,,,,,,UWYO,NO_RAOB_250,No UWyo sounding found
PALANGKA RAYA/TJILIK RIWUT,ID,96655,-2.2281,113.9462,,,,,,,,,,,,,UWYO,NO_RAOB_250,No UWyo sounding found
BANJARMASIN/SYAMSUDIN NOOR,ID,96685,-3.4387,114.7524,,,,,,,,,,,,,UWYO,NO_RAOB_250,No UWyo sounding found
SERANG,ID,96737,-6.1167,106.1333,,,,,,,,,,,,,UWYO,NO_RAOB_250,No UWyo sounding found
CURUG/BUDIARTO,ID,96739,-6.2333,106.65,,,,,,,,,,,,,UWYO,NO_RAOB_250,No UWyo sounding found
JAKARTA/SOEKARNO-HATTA,ID,96749,-6.1221,106.6547,2026-02-04,00:00,00Z,8,13,5,,,10,2,11,3,UWYO,OK,Exact 250 mb level.
CIREBON/JATIWANGI,ID,96791,-6.75,108.2667,,,,,,,,,,,,,UWYO,NO_RAOB_250,No UWyo sounding found
TEGAL,ID,96797,-6.85,109.15,,,,,,,,,,,,,UWYO,NO_RAOB_250,No UWyo sounding found
CILACAP,ID,96805,-7.7333,109.0167,,,,,,,,,,,,,UWYO,NO_RAOB_250,No UWyo sounding found
SEMARANG/AHMAD YANI,ID,96839,-6.9833,110.3833,,,,,,,,,,,,,UWYO,NO_RAOB_250,No UWyo sounding found
SANGKAPURA (BAWEAN IS.),ID,96925,-5.851,112.6577,,,,,,,,,,,,,UWYO,NO_RAOB_250,No UWyo sounding found
JUANDA SURABAYA,ID,96935,-7.3726,112.7799,2026-02-04,00:00,00Z,14,16,2,,,12,-2,13,-1,UWYO,OK,Exact 250 mb level.
KALIANGET (MADURA IS),ID,96973,-7.0413,113.9159,,,,,,,,,,,,,UWYO,NO_RAOB_250,No UWyo sounding found
BANYUWANGI,ID,96987,-8.2152,114.3553,,,,,,,,,,,,,UWYO,NO_RAOB_250,No UWyo sounding found
COCOS ISLAND AERO,CC,96996,-12.1892,96.8344,2026-02-04,00:00,00Z,13,15,2,,,12,-1,10,-3,UWYO,OK,Exact 250 mb level.
MENADO/ SAM RATULANGI,ID,97014,1.546,124.9228,,,,,,,,,,,,,UWYO,NO_RAOB_250,No UWyo sounding found
TOLI-TOLI/LALOS,ID,97028,1.1213,120.7943,,,,,,,,,,,,,UWYO,NO_RAOB_250,No UWyo sounding found
GORONTALO/JALALUDDIN,ID,97048,0.6391,122.8512,,,,,,,,,,,,,UWYO,NO_RAOB_250,No UWyo sounding found
PALU/MUTIARA,ID,97072,-0.9163,119.9054,,,,,,,,,,,,,UWYO,NO_RAOB_250,No UWyo sounding found
LUWUK/BUBUNG,ID,97086,-1.0405,122.7709,,,,,,,,,,,,,UWYO,NO_RAOB_250,No UWyo sounding found
POSO/KASIGUNCU,ID,97096,-1.4202,120.6571,,,,,,,,,,,,,UWYO,NO_RAOB_250,No UWyo sounding found
MAJENE,ID,97120,-3.5,119,,,,,,,,,,,,,UWYO,NO_RAOB_250,No UWyo sounding found
UJUNG PANDANG/HASANUDDIN,ID,97180,-5.071,119.5522,2026-02-04,00:00,00Z,30,11,-19,,,22,-8,16,-14,UWYO,OK,Exact 250 mb level.
BAU-BAU/BETO AMBARI,ID,97192,-5.4879,122.5709,,,,,,,,,,,,,UWYO,NO_RAOB_250,No UWyo sounding found
DENPASAR/NGURAH RAI,ID,97230,-8.7499,115.1766,2026-02-04,00:00,00Z,15,12,-3,,,16,1,16,1,UWYO,OK,Exact 250 mb level.
PRAYA LOMBOK,ID,97240,-8.55,116.0833,,,,,,,,,,,,,UWYO,NO_RAOB_250,No UWyo sounding found
SUMBAWA BESAR/BRANGBIJI,ID,97260,-8.488,117.4135,,,,,,,,,,,,,UWYO,NO_RAOB_250,No UWyo sounding found
BIMA/M.SALAHUDDIN,ID,97270,-8.5425,118.693,,,,,,,,,,,,,UWYO,NO_RAOB_250,No UWyo sounding found
MAUMERE/WAI OTI,ID,97300,-8.6358,122.2374,,,,,,,,,,,,,UWYO,NO_RAOB_250,No UWyo sounding found
WAINGAPU/MAU HAU,ID,97340,-9.6697,120.2997,,,,,,,,,,,,,UWYO,NO_RAOB_250,No UWyo sounding found
KUPANG/ELTARI,ID,97372,-10.1676,123.6701,2026-02-04,00:00,00Z,20,22,2,,,20,0,22,2,UWYO,OK,Exact 250 mb level.
TERNATE/BABULLAH,ID,97430,0.829,127.3813,,,,,,,,,,,,,UWYO,NO_RAOB_250,No UWyo sounding found
LABUHA/OESMAN SADIK,ID,97460,-0.6333,127.5,,,,,,,,,,,,,UWYO,NO_RAOB_250,No UWyo sounding found
DEO SORONG,ID,97502,-0.8911,131.2858,2026-02-04,00:00,00Z,28,28,0,,,31,3,28,0,UWYO,OK,Exact 250 mb level.
BIAK/FRANS KAISIEPO,ID,97560,-1.1833,136.1167,,,,,,,,,,,,,UWYO,NO_RAOB_250,No UWyo sounding found
SANANA,ID,97600,-2.0702,125.979,,,,,,,,,,,,,UWYO,NO_RAOB_250,No UWyo sounding found
WAMENA,ID,97686,-4.0958,138.9502,,,,,,,,,,,,,UWYO,NO_RAOB_250,No UWyo sounding found
JAYAPURA/SENTANI,ID,97690,-2.576,140.5184,,,,,,,,,,,,,UWYO,NO_RAOB_250,No UWyo sounding found
AMBON/PATTIMURA,ID,97724,-3.7111,128.0854,,,,,,,,,,,,,UWYO,NO_RAOB_250,No UWyo sounding found
GESER,ID,97748,-3.8868,130.8955,,,,,,,,,,,,,UWYO,NO_RAOB_250,No UWyo sounding found
TUAL/DUMATUBUN,ID,97810,-5.6637,132.7361,,,,,,,,,,,,,UWYO,NO_RAOB_250,No UWyo sounding found
SAUMLAKI/OLILIT,ID,97900,-7.9833,131.3,,,,,,,,,,,,,UWYO,NO_RAOB_250,No UWyo sounding found
MERAUKE/MOPAH,ID,97980,-8.5202,140.4157,,,,,,,,,,,,,UWYO,NO_RAOB_250,No UWyo sounding found
LAOAG,PH,98223,18.1831,120.5348,2026-02-04,00:00,00Z,41,37,-4,,,38,-3,36,-5,UWYO,OK,Exact 250 mb level.
TUGUEGARAO,PH,98233,17.6478,121.7584,2026-02-04,00:00,00Z,35,34,-1,,,31,-5,32,-3,UWYO,OK,Exact 250 mb level.
TANAY,PH,98433,14.5812,121.3693,2026-02-04,00:00,00Z,4,5,1,,,7,3,7,3,UWYO,OK,Exact 250 mb level.
LEGASPI,PH,98444,13.1508,123.7283,2026-02-04,00:00,00Z,12,11,-1,,,11,-1,11,-1,UWYO,OK,Exact 250 mb level.
GUIUAN,PH,98558,11.0456,125.7555,2026-02-04,00:00,00Z,16,10,-6,,,20,4,14,-2,UWYO,OK,Exact 250 mb level.
PUERTO PRINCESA,PH,98618,9.7401,118.7586,2026-02-04,00:00,00Z,23,16,-7,,,21,-2,21,-2,UWYO,OK,Exact 250 mb level.
MACTAN,PH,98646,10.3167,123.9833,2026-02-04,00:00,00Z,16,20,4,,,19,3,19,3,UWYO,OK,Exact 250 mb level.
DAVAO AIRPORT,PH,98753,7.128,125.6548,2026-02-04,00:00,00Z,23,29,6,,,23,0,21,-2,UWYO,OK,Exact 250 mb level.